[{"id":1,"uuid":"d2a4a9e1-84e5-4a5e-a6b1-83ac5d417a95","name":"First School","code":null,"address":null,"lat":null,"lng":null},{"id":4,"uuid":"2f1500b8-c93f-4be1-84ec-42d0d720dd2e","name":"L. Artistico - Boccioni","code":"MISL03000N","address":"Piazzale Arduino 4, 20149 Milano MI","lat":45.4780944,"lng":9.1507584},{"id":5,"uuid":"c59b9ed2-5200-4cbd-b4e4-fbafe1177c51","name":"L. Classico - A. Manzoni","code":"MIPC01000C","address":"Via Orazio 3, 20123 Milano MI","lat":45.4598427,"lng":9.177759},{"id":6,"uuid":"6adcdb9b-8fbd-4373-b7b4-de0cf4573e2c","name":"L. Classico - Beccaria","code":"MIPC040008","address":"Via Carlo Linneo 5, 20145 Milano MI","lat":45.4783915,"lng":9.164207},{"id":7,"uuid":"ea44d0d6-d8e1-437d-976d-95a6ef1ebe9b","name":"L. Classico - Berchet","code":"MIPC05000V","address":"Via della Commenda 26, 20122 Milano MI","lat":45.4556458,"lng":9.1993143},{"id":8,"uuid":"7b860bc4-3254-4858-893c-90672ef2d525","name":"L. Classico - Carducci","code":"MIPC03000N","address":"Via Beroldo 9, 20127 Milano MI","lat":45.4879842,"lng":9.2147492},{"id":9,"uuid":"661519e5-22d5-4321-aa97-0a2be19eae10","name":"L. Classico - Parini","code":"MIPC170001","address":"Via Goito 4, 20121 Milano MI","lat":45.474271,"lng":9.188819},{"id":10,"uuid":"ef3e5de9-d712-4ceb-8063-435a89ebc9ab","name":"L. Classico - Tito Livio","code":"MIPC20000G","address":"Via Circo 4, 20123 Milano MI","lat":45.4616281,"lng":9.1807526},{"id":18,"uuid":"d708f93c-113c-4cc5-a913-8ad774fe0958","name":"L. Linguistico - Tenca","code":"MIPM11000D-LL","address":"Bastioni di Porta Volta 16, 20121 Milano MI","lat":45.4792743,"lng":9.1811336},{"id":19,"uuid":"79a64a67-a434-41cd-b325-b19110b3a9c2","name":"L. Musicale e Coreutico - Tenca","code":"MIPM11000D-LM","address":"Bastioni di Porta Volta 16, 20121 Milano MI","lat":45.4792743,"lng":9.1811336},{"id":11,"uuid":"a7aff260-1912-4d8b-97b6-77e4f023ce40","name":"L. Scientifico - E. Vittorini","code":"MIPS18000P","address":"Via Mario Donati 5, 20146 Milano MI","lat":45.4545425,"lng":9.145835},{"id":12,"uuid":"7717a6f9-8881-4851-8dca-648abba07a16","name":"L. Scientifico - L. Cremona","code":"MIPS026016","address":"Viale Marche 73, 20159 Milano MI","lat":45.4964364,"lng":9.1901419},{"id":13,"uuid":"8ed8a1c4-7718-4caf-9b47-03358825fce0","name":"L. Scientifico - L. da Vinci","code":"MIPS03000R","address":"Via Ottorino Respighi 5, 20122 Milano MI","lat":45.4630875,"lng":9.2024776},{"id":14,"uuid":"677a070a-19ad-4820-945b-ee989a6fd373","name":"L. Scientifico - S. Allende","code":"MIPS02201V-LS","address":"Via Ulisse Dini 7, 20142 Milano MI","lat":45.4292374,"lng":9.1798727},{"id":15,"uuid":"7b081a8d-3cf0-4943-a6ed-68a96748061f","name":"L. Scientifico - Vittorio Veneto","code":"MIPS070007","address":"Via Angelo de Vincenti 7, 20148 Milano MI","lat":45.4774159,"lng":9.141598},{"id":16,"uuid":"2db9cbf0-cd14-4604-b135-523737a746b1","name":"L. Scientifico - Volta","code":"MIPS08000T","address":"Via Benedetto Marcello 7, 20124 Milano MI","lat":45.4796217,"lng":9.2063025},{"id":17,"uuid":"965c1e0b-5249-4af5-97d3-1d7e1dfa1d6e","name":"L. Scienze Umane - Tenca","code":"MIPM11000D-LU","address":"Bastioni di Porta Volta 16, 20121 Milano MI","lat":45.4792743,"lng":9.1811336},{"id":2,"uuid":"6f384f90-3c04-4c57-a3ff-58eda434cca1","name":"Second School","code":null,"address":null,"lat":null,"lng":null},{"id":3,"uuid":"513c3d0d-dc92-485f-b90e-bf1d738a787a","name":"Third School","code":null,"address":null,"lat":null,"lng":null}]